City_ID,City,Lat,Lng,Max Temp,Humidity,Cloudiness,Wind Speed,Country,Date
0,port elizabeth,-33.918,25.5701,14.08,76,90,2.57,ZA,1689988001
1,uturoa,-16.7333,-151.4333,24.31,62,16,5.61,PF,1689988001
2,dunedin,-45.8742,170.5036,8.78,60,6,2.24,NZ,1689988002
3,ketchikan,55.3422,-131.6461,18.26,88,75,3.6,US,1689987771
4,kailua-kona,19.6406,-155.9956,31.44,81,40,5.66,US,1689988002
5,vorgashor,67.5833,63.95,16.99,89,100,3.14,RU,1689988003
6,aasiaat,68.7098,-52.8699,3.44,96,100,2.84,GL,1689987798
7,adamstown,-25.066,-130.1015,21.2,73,15,13.8,PN,1689988003
8,iqaluit,63.7506,-68.5145,6.5,87,75,1.34,CA,1689988004
9,seven pagodas,12.6264,80.1722,30.03,59,100,7.1,IN,1689988004
10,puerto natales,-51.7236,-72.4875,-3.1,96,100,1.51,CL,1689988004
11,saipan,15.1355,145.701,31.39,100,75,6.69,MP,1689988005
12,bilibino,68.0546,166.4372,25.28,35,32,1.44,RU,1689988005
13,bireun,5.203,96.7009,27.1,69,42,1.44,ID,1689988005
14,emerald,-23.5333,148.1667,20.96,37,3,7.43,AU,1689988006
15,lebu,-37.6167,-73.65,10.64,86,100,5.63,CL,1689988006
16,bredasdorp,-34.5322,20.0403,7.14,73,100,2.06,ZA,1689988006
17,guankou,28.15,113.6333,29.27,82,100,1.28,CN,1689988007
18,banjarmasin,-3.3244,114.591,26.62,78,88,1.79,ID,1689987903
19,joshimath,30.5667,79.5667,22.07,95,87,0.93,IN,1689988007
20,gamba,-2.65,10.0,20.91,87,2,1.95,GA,1689988008
21,launceston,-41.45,147.1667,9.08,87,75,0.0,AU,1689987861
22,muli,2.9167,73.5667,27.5,73,100,2.17,MV,1689988008
23,bandol,43.1371,5.7316,25.93,66,21,4.62,FR,1689988009
24,puerto quijarro,-17.7833,-57.7667,22.44,35,0,0.97,BO,1689988009
25,ribeira grande,38.5167,-28.7,20.43,92,9,1.34,PT,1689988009
26,edinburgh of the seven seas,-37.0676,-12.3116,12.16,75,100,8.56,SH,1689988010
27,kingston,17.997,-76.7936,30.53,77,20,10.29,JM,1689987605
28,ilulissat,69.2167,-51.1,6.01,93,100,0.0,GL,1689988010
29,ohara,35.25,140.3833,27.92,72,8,4.77,JP,1689988011
30,mount gambier,-37.8333,140.7667,12.91,69,12,4.04,AU,1689988011
31,puerto ayora,-0.7393,-90.3518,24.67,83,75,4.28,EC,1689988011
32,labasa,-16.4167,179.3833,27.18,70,78,1.58,FJ,1689988012
33,al jawf,29.5,38.75,26.96,26,0,4.98,SA,1689988012
34,east london,-33.0153,27.9116,20.35,46,92,8.53,ZA,1689988012
35,grytviken,-54.2811,-36.5092,2.41,93,100,7.19,GS,1689988012
36,petropavlovsk-kamchatsky,53.0452,158.6483,21.33,64,0,3.0,RU,1689988013
37,caleta de carquin,-11.0925,-77.6267,19.92,81,5,5.12,PE,1689988013
38,port augusta,-32.5,137.7667,13.86,56,0,3.84,AU,1689987755
39,port-aux-francais,-49.35,70.2167,1.15,69,100,11.12,TF,1689988014
40,pokotylivka,49.9153,36.1772,15.48,70,38,1.7,UA,1689988014
41,oriximina,-1.7656,-55.8661,26.79,63,42,1.26,BR,1689988015
42,kyzyl-suu,42.3414,78.0056,17.56,65,0,0.69,KG,1689988015
43,micheweni,-4.9667,39.8333,24.92,79,0,6.04,TZ,1689988015
44,tura,25.5198,90.2201,25.53,91,100,1.3,IN,1689988015
45,pearsall,28.8922,-99.095,38.66,19,0,3.72,US,1689988016
46,bethel,41.3712,-73.414,24.93,81,0,2.06,US,1689988016
47,carlsbad,33.1581,-117.3506,34.68,67,0,3.6,US,1689987999
48,tual,-5.6667,132.75,26.4,78,23,8.67,ID,1689988017
49,touros,-5.1989,-35.4608,23.8,77,0,6.32,BR,1689988017
50,georgetown,5.4112,100.3354,27.19,91,20,2.06,MY,1689987828
51,wailua homesteads,22.0669,-159.378,30.44,71,75,7.2,US,1689988018
52,bogorodskoye,56.55,37.8833,11.97,78,45,3.33,RU,1689988018
53,jamestown,42.097,-79.2353,20.77,88,20,4.63,US,1689987813
54,balqash,46.8481,74.995,24.33,42,0,5.73,KZ,1689988019
55,adrar,20.5022,-10.0711,33.85,26,7,7.96,MR,1689988019
56,ushuaia,-54.8,-68.3,-8.33,87,21,2.31,AR,1689988020
57,guerrero negro,27.9769,-114.0611,21.92,70,14,7.96,MX,1689988020
58,brezina,33.0989,1.2608,31.25,15,23,1.65,DZ,1689988020
59,bechar,31.6167,-2.2167,31.35,13,0,0.17,DZ,1689988021
60,ruteng,-8.6136,120.4721,18.83,72,42,1.64,ID,1689988021
61,avarua,-21.2078,-159.775,24.03,64,40,8.75,CK,1689988022
62,cole harbour,44.6724,-63.4751,21.57,97,75,2.24,CA,1689988022
63,isagarh,24.8333,77.8833,27.99,71,12,3.34,IN,1689988022
64,aldan,58.6031,125.3894,17.06,75,100,2.12,RU,1689988023
65,contamana,-7.3333,-75.0167,26.96,63,100,0.14,PE,1689988023
66,aras-asan,8.8908,126.3033,26.49,86,100,2.52,PH,1689988024
67,klyuchi,52.2667,79.1667,20.07,70,50,5.74,RU,1689988024
68,talnakh,69.4865,88.3972,20.67,69,89,2.48,RU,1689988024
69,obo,5.3998,26.4869,20.28,95,97,1.01,CF,1689988025
70,hamilton,39.1834,-84.5333,23.47,69,75,3.6,US,1689988025
71,san antonio de pale,-1.4014,5.6325,23.27,73,86,5.35,GQ,1689988025
72,ishigaki,24.3448,124.1572,29.15,76,100,4.57,JP,1689988026
73,nagqu,31.5,92.0,6.92,61,95,1.75,CN,1689988026
74,hadibu,12.65,54.0333,25.6,82,85,11.55,YE,1689987746
75,longyearbyen,78.2186,15.6401,6.91,81,100,4.63,SJ,1689988027
76,afaahiti,-17.75,-149.2833,25.93,62,14,4.09,PF,1689988028
77,san cristobal,7.7669,-72.225,25.1,98,100,2.14,VE,1689988028
78,ataq,14.5377,46.8319,26.83,59,100,3.78,YE,1689987746
79,thompson,55.7435,-97.8558,20.23,81,60,1.7,CA,1689988029
80,kerikeri,-35.2268,173.9474,16.62,74,99,1.34,NZ,1689988029
81,waitangi,-43.9535,-176.5597,12.12,93,100,2.68,NZ,1689988029
82,mantua,45.1667,10.7833,22.27,88,7,2.68,IT,1689988030
83,al kharijah,25.4514,30.5464,29.8,16,0,4.07,EG,1689988030
84,chonchi,-42.6128,-73.8092,7.84,97,100,0.87,CL,1689988031
85,vilyuchinsk,52.9306,158.4028,22.15,72,100,3.89,RU,1689988031
86,bandon,51.7469,-8.7425,13.77,97,100,6.86,IE,1689988031
87,luganville,-15.5333,167.1667,23.29,90,100,2.93,VU,1689988031
88,stanley,54.868,-1.6985,11.55,91,100,1.76,GB,1689988032
89,blackmans bay,-43.0167,147.3167,12.61,76,100,3.25,AU,1689988032
90,puerto aysen,-45.4,-72.7,4.74,99,100,2.28,CL,1689988032
91,qaqortoq,60.7167,-46.0333,6.18,97,29,0.54,GL,1689988033
92,kili,5.6439,169.1211,25.24,89,100,0.51,MH,1689988033
93,siuna,13.7332,-84.7773,24.21,97,100,1.59,NI,1689988033
94,port lincoln,-34.7333,135.8667,12.5,81,100,5.97,AU,1689988034
95,west island,-12.1568,96.8225,23.99,88,75,6.69,CC,1689988034
96,isafjordur,66.0755,-23.124,10.45,73,100,0.93,IS,1689988034
97,yellowknife,62.456,-114.3525,25.31,29,22,4.92,CA,1689988035
98,nemuro,43.3236,145.575,16.84,88,16,5.71,JP,1689988035
99,okhotsk,59.3833,143.3,14.34,91,100,2.1,RU,1689988036
100,jiayuguan,39.8167,98.3,26.36,15,0,0.52,CN,1689987912
101,jinchang,38.4953,102.1739,25.78,24,0,2.27,CN,1689988036
102,enewetak,11.3474,162.3373,28.63,77,25,6.9,MH,1689988037
103,senanga,-16.1167,23.2667,15.54,66,5,2.92,ZM,1689987763
104,cadale,2.7603,46.3222,24.7,87,71,7.76,SO,1689988037
105,the pas,53.8251,-101.2541,19.01,82,99,2.57,CA,1689988038
106,tiksi,71.6872,128.8694,12.03,50,34,4.01,RU,1689988038
107,macapa,0.0389,-51.0664,26.99,89,40,2.57,BR,1689988038
108,papatowai,-46.5619,169.4708,8.45,63,5,6.61,NZ,1689988039
109,poronaysk,49.2167,143.1167,22.29,76,80,2.38,RU,1689988039
110,conception bay south,47.4999,-52.9981,21.53,85,0,3.01,CA,1689987957
111,kayangel,8.0823,134.7173,27.55,81,100,4.84,PW,1689988040
112,nova sintra,14.8667,-24.7167,22.97,83,19,7.65,CV,1689988040
113,magadan,59.5667,150.8,20.85,83,86,3.27,RU,1689988040
114,richards bay,-28.783,32.0377,14.84,76,5,5.38,ZA,1689988041
115,basco,20.4487,121.9702,28.92,78,79,4.65,PH,1689988041
116,udachny,66.4167,112.4,21.36,68,93,6.51,RU,1689987754
117,fenoarivo be,-18.4333,46.5667,16.36,72,98,4.38,MG,1689988042
118,dalbandin,28.8947,64.4101,30.3,43,77,2.21,PK,1689988042
119,corner brook,48.9667,-57.9484,19.49,94,98,2.01,CA,1689988042
120,kolonia town,6.964,158.206,26.06,100,100,3.09,FM,1689988043
121,quellon,-43.1167,-73.6167,7.14,93,100,1.54,CL,1689988043
122,pedro ii,-4.4247,-41.4586,21.06,44,0,2.66,BR,1689987746
123,phongsali,21.6833,102.1058,20.48,85,100,0.44,LA,1689988044
124,nar'yan-mar,67.6713,53.087,9.53,91,98,6.11,RU,1689988044
125,pisco,-13.7,-76.2167,19.03,77,75,6.69,PE,1689988044
126,nuku'alofa,-21.1333,-175.2,26.19,78,40,2.57,TO,1689988045
127,las juntas,19.4167,-104.7,28.74,76,100,2.31,MX,1689988045
128,acapulco de juarez,16.8634,-99.8901,30.9,79,75,2.57,MX,1689988045
129,chegdomyn,51.1167,133.0167,22.94,46,100,1.75,RU,1689988046
130,glace bay,46.1969,-59.957,21.99,95,100,4.63,CA,1689988046
131,onega,63.9061,38.1404,12.77,98,88,2.36,RU,1689988046
132,viana do castelo,41.6932,-8.8329,16.46,91,8,2.83,PT,1689988047
133,punta arenas,-53.15,-70.9167,-2.16,92,100,2.39,CL,1689987429
134,saint joseph,39.7686,-94.8466,25.87,68,0,2.06,US,1689988047
135,palmer,42.1584,-72.3287,21.8,83,100,3.09,US,1689988012
136,zhezqazghan,47.7833,67.7667,16.32,51,0,3.0,KZ,1689988048
137,nabire,-3.3667,135.4833,28.83,72,16,1.65,ID,1689988048
138,andrews,32.3187,-102.5457,35.59,31,0,7.72,US,1689988049
139,port macquarie,-31.4333,152.9167,17.16,52,81,5.82,AU,1689987939
140,helston,50.1032,-5.2705,14.29,94,75,2.57,GB,1689988049
141,inhambane,-23.865,35.3833,17.83,75,89,2.41,MZ,1689988050
142,kununurra,-15.7667,128.7333,25.99,31,0,7.72,AU,1689988050
143,whitehorse,60.7161,-135.0538,17.43,88,100,4.63,CA,1689987801
144,iskateley,67.6803,53.1512,9.49,91,98,6.09,RU,1689988051
145,margaret river,-33.95,115.0667,13.48,69,17,1.9,AU,1689988051
146,fale old settlement,-9.3852,-171.2468,28.65,70,99,3.14,TK,1689988051
147,bubaque,11.2833,-15.8333,27.56,81,95,6.98,GW,1689988052
148,olonkinbyen,70.9221,-8.7187,5.77,81,100,2.26,SJ,1689988052
149,dhamar,14.5427,44.4051,18.93,50,100,0.59,YE,1689988052
150,metlili chaamba,32.2667,3.6333,33.76,12,0,3.25,DZ,1689988053
151,sao gabriel da cachoeira,-0.1303,-67.0892,24.2,81,6,0.49,BR,1689988053
152,kapuskasing,49.4169,-82.4331,15.53,59,2,1.82,CA,1689988053
153,usogorsk,63.4106,48.6872,14.03,97,100,1.91,RU,1689988054
154,birjand,32.8663,59.2211,20.7,24,11,5.17,IR,1689988054
155,alice springs,-23.7,133.8833,11.75,47,0,4.63,AU,1689988054
156,flying fish cove,-10.4217,105.6791,24.82,83,100,6.69,CX,1689988054
157,anadyr,64.75,177.4833,19.28,68,20,3.0,RU,1689988055
158,cockburn town,21.4612,-71.1419,27.92,82,95,7.05,TC,1689987932
159,kruisfontein,-34.0033,24.7314,11.02,77,100,2.27,ZA,1689988055
160,francisco sa,-16.4758,-43.4883,17.74,78,100,5.69,BR,1689988056
161,batamshinskiy,50.5594,58.2747,17.72,54,90,2.04,KZ,1689988056
162,murud,18.3258,72.965,25.55,93,100,5.14,IN,1689988056
163,santa cruz del norte,23.1539,-81.9236,28.83,77,20,3.73,CU,1689988057
164,albany,42.6001,-73.9662,21.3,91,0,3.26,US,1689988056
165,vimmerby,57.6659,15.8552,8.92,91,96,1.99,SE,1689988057
166,slantsy,59.1182,28.0914,11.59,93,100,3.25,RU,1689988058
167,tilcara,-23.5776,-65.3509,12.18,12,1,4.04,AR,1689988058
168,sur,22.5667,59.5289,29.95,68,84,1.77,OM,1689988058
169,kodiak,57.79,-152.4072,17.73,63,0,1.54,US,1689988059
170,tsiombe,-25.3,45.4833,18.34,70,0,5.09,MG,1689988038
171,vila franca do campo,37.7167,-25.4333,21.23,90,68,1.14,PT,1689988059
172,kharan,28.5833,65.4167,32.46,32,99,2.26,PK,1689988060
173,slyudyanka,51.6594,103.7061,19.03,65,34,0.83,RU,1689988060
174,cabo san lucas,22.8909,-109.9124,35.34,51,0,4.63,MX,1689988060
175,cantanhede,-3.6333,-44.3767,23.07,62,14,0.6,BR,1689987785
176,banda aceh,5.5577,95.3222,27.9,71,100,5.8,ID,1689988061
177,port mathurin,-19.6833,63.4167,22.85,79,100,7.13,MU,1689988061
178,moree,-29.4667,149.85,13.27,47,0,2.97,AU,1689988062
179,grenaa,56.4158,10.8783,12.12,95,100,4.68,DK,1689988062
180,enriquillo,17.9,-71.2333,26.32,80,0,4.02,DO,1689988062
181,brisas de zicatela,15.8369,-97.0419,29.29,61,40,3.09,MX,1689988063
182,utrik,11.2278,169.8474,28.37,77,17,7.09,MH,1689988063
183,nyurba,63.2842,118.3319,22.83,63,39,1.83,RU,1689988063
184,atafu village,-8.5421,-172.5159,28.85,70,84,3.49,TK,1689988064
185,constantia,44.1833,28.65,20.39,82,0,5.3,RO,1689987879
186,fortuna,40.5982,-124.1573,19.96,88,75,6.17,US,1689987931
187,guiuan,11.0333,125.7247,28.24,76,87,5.61,PH,1689988065
188,tuy hoa,13.0833,109.3,28.35,74,100,1.83,VN,1689988065
189,kadoma,34.7333,135.5833,31.47,39,0,1.75,JP,1689988065
190,ilomantsi,62.6716,30.9328,12.61,98,100,3.8,FI,1689988066
191,cidreira,-30.1811,-50.2056,17.6,92,97,7.8,BR,1689987814
192,sona,45.4388,10.8255,19.88,94,0,1.03,IT,1689988066
193,hermanus,-34.4187,19.2345,10.74,58,100,3.27,ZA,1689988067
194,chibougamau,49.9168,-74.3659,12.95,96,100,1.93,CA,1689988067
195,bamboo flat,11.7,92.7167,27.2,84,100,6.27,IN,1689988068
196,saint-joseph,-21.3667,55.6167,20.21,85,86,7.65,RE,1689988068
197,ust-tsilma,65.441,52.1498,16.51,79,48,1.1,RU,1689988068
198,makoua,0.0069,15.6333,25.4,59,100,1.34,CG,1689988068
199,kismayo,-0.3582,42.5454,24.8,85,100,7.38,SO,1689988069
200,puerto baquerizo moreno,-0.9,-89.6,24.48,82,95,5.05,EC,1689988069
201,turkestan,43.3333,68.25,27.93,28,0,4.06,KZ,1689988069
202,lau,9.2167,11.2833,23.67,94,28,1.44,NG,1689988070
203,naze,28.3667,129.4833,27.74,71,100,1.83,JP,1689988070
204,tres marias,19.0522,-99.2431,17.14,52,85,1.81,MX,1689988070
205,kalmunai,7.4167,81.8167,26.74,61,99,3.61,LK,1689988071
206,zhosaly,45.4878,64.0781,25.3,33,95,4.16,KZ,1689988071
207,gadzhiyevo,69.2551,33.3362,8.89,80,93,7.27,RU,1689988071
208,fort st. john,56.2499,-120.8529,27.44,34,81,4.27,CA,1689988072
209,dokshytsy,54.8924,27.7689,10.42,89,90,2.96,BY,1689988072
210,grand gaube,-20.0064,57.6608,20.21,76,45,0.45,MU,1689988072
211,bardai,11.65,7.2333,22.4,77,100,2.4,NG,1689988073
212,san patricio,28.017,-97.5169,32.4,62,0,6.77,US,1689988073
213,dongola,19.1667,30.4833,35.28,9,100,5.75,SD,1689988073
214,invercargill,-46.4,168.35,7.01,61,7,3.05,NZ,1689988074
215,angaur state,6.906,134.13,27.77,82,97,6.08,PW,1689988074
216,badger,64.8,-147.5333,26.95,39,0,2.06,US,1689988074
217,new norfolk,-42.7826,147.0587,13.27,69,100,1.65,AU,1689988075
218,lagos,6.5833,3.75,25.09,85,100,3.42,NG,1689988037
219,hawaiian paradise park,19.5933,-154.9731,29.29,69,40,4.63,US,1689987894
220,arraial do cabo,-22.9661,-42.0278,21.09,72,20,7.08,BR,1689988076
221,cruzeiro do sul,-29.5128,-51.9853,18.01,95,19,1.94,BR,1689987855
222,saint-francois,46.4154,3.9054,12.69,88,0,1.03,FR,1689988077
223,suva,-18.1416,178.4415,24.71,83,75,3.6,FJ,1689988077
224,umluj,25.0213,37.2685,32.08,40,95,3.71,SA,1689988077
225,college,64.8569,-147.8028,26.99,42,20,2.06,US,1689987829
226,gisborne,-38.6533,178.0042,10.21,90,100,5.33,NZ,1689988078
227,yemetsk,63.4721,41.7941,12.23,97,98,1.78,RU,1689988078
228,galliano,29.4422,-90.2992,30.56,67,72,4.38,US,1689988079
229,kone,-21.0595,164.8658,20.45,63,91,3.38,NC,1689988079
230,anajatuba,-3.2644,-44.6197,22.92,70,8,0.86,BR,1689988079
231,narrabri,-30.3167,149.7833,13.07,62,0,1.34,AU,1689988080
232,keflavik,64.0049,-22.5624,11.24,82,100,3.6,IS,1689988080
233,colonia,50.9333,6.95,14.92,75,0,1.03,DE,1689988080
234,pangody,65.85,74.4859,19.41,74,100,2.13,RU,1689988081
235,lata,40.1629,-8.3327,13.2,98,14,0.75,PT,1689988081
236,santo antonio do ica,-3.1022,-67.9397,24.73,72,14,0.55,BR,1689988081
237,cam ranh,11.9214,109.1591,27.98,78,75,1.03,VN,1689988082
238,laguna,38.421,-121.4238,43.08,27,0,3.09,US,1689988082
239,puerto ayacucho,5.6639,-67.6236,24.72,91,98,1.77,VE,1689988082
240,ca mau,9.1769,105.15,25.8,90,100,3.72,VN,1689988083
241,al bawiti,28.3492,28.8659,27.18,35,0,2.85,EG,1689988083
242,haiku-pauwela,20.9219,-156.3051,29.01,57,0,12.35,US,1689988084
243,svetlyy,54.675,20.1347,14.03,91,100,1.1,RU,1689988084
244,la passe,45.5549,-0.8967,16.66,76,0,3.14,FR,1689988085
245,mezhdurechenskiy,59.6,65.9333,15.05,84,7,3.55,RU,1689988085
246,flin flon,54.7682,-101.865,24.44,43,62,3.77,CA,1689988085
247,aroma,15.8167,36.1333,26.92,58,86,8.91,SD,1689988086
248,corpus christi,27.8006,-97.3964,32.13,76,0,6.69,US,1689987842
249,yuzhno-kurilsk,44.0306,145.8556,18.4,81,34,5.02,RU,1689988086
250,bikenibeu village,1.3673,173.1241,28.25,70,74,0.08,KI,1689988087
251,daru,-9.0763,143.2092,26.68,70,78,6.18,PG,1689988087
252,saint-philippe,-21.3585,55.7679,20.77,86,88,7.23,RE,1689988087
253,baijiantan,45.6333,85.1833,33.42,21,8,6.8,CN,1689988088
254,luena,-11.7833,19.9167,16.25,41,20,1.54,AO,1689988088
255,ambon,-3.6954,128.1814,28.08,74,40,2.57,ID,1689988089
256,sarupathar,26.1984,93.8094,25.54,96,100,0.6,IN,1689988036
257,karratha,-20.7377,116.8463,21.15,26,0,11.32,AU,1689988089
258,alta,69.9689,23.2717,9.59,82,100,4.47,NO,1689988059
259,alapa,8.6167,4.3833,22.76,97,100,2.62,NG,1689988090
260,veraval,20.9,70.3667,27.39,88,100,6.54,IN,1689988090
261,bengkulu,-3.8004,102.2655,25.46,84,12,1.37,ID,1689988091
262,sitka,57.0531,-135.33,15.94,82,100,4.12,US,1689988091
263,empalme,27.9667,-110.8167,33.03,75,40,6.17,MX,1689988091
264,port moresby,-9.4431,147.1797,27.5,66,55,5.52,PG,1689988092
265,at taj,24.2049,23.2857,29.02,16,0,4.15,LY,1689988092
266,roma,43.2128,-75.4557,21.08,78,75,3.6,US,1689988092
267,kemi,65.8596,24.8228,12.87,94,20,2.06,FI,1689988093
268,crane,31.3974,-102.3501,35.85,18,4,6.05,US,1689988094
269,scarborough,54.2797,-0.4044,13.14,89,100,0.89,GB,1689988084
270,saint-pierre,-21.3393,55.4781,20.82,83,100,4.63,RE,1689988094
271,broken hill,-31.95,141.4333,11.45,49,5,2.49,AU,1689988095
272,lubang,13.8584,120.124,28.18,75,48,2.32,PH,1689988095
273,puerto francisco de orellana,-0.4667,-76.9667,21.53,94,100,0.83,EC,1689988096
274,fort bragg,35.139,-79.006,29.95,66,0,0.0,US,1689988096
275,pacocha,-17.5833,-71.3333,15.97,87,50,0.54,PE,1689988096
276,itaituba,-4.2761,-55.9836,25.74,50,73,1.09,BR,1689988097
277,wingham,43.8879,-81.3114,20.15,79,2,2.45,CA,1689988097
278,salalah,17.0151,54.0924,25.05,100,100,1.03,OM,1689987985
279,tazovsky,67.4667,78.7,16.58,75,99,2.36,RU,1689988098
280,selfoss,63.9331,-20.9971,10.58,90,98,1.77,IS,1689988098
281,arkalyk,50.2486,66.9114,18.45,53,92,1.74,KZ,1689988099
282,opuwo,-18.0607,13.84,14.27,30,0,1.71,NA,1689988099
283,uaua,-9.8414,-39.4817,18.98,72,0,5.14,BR,1689988099
284,kankaanpaa,61.8,22.4167,9.42,96,100,0.57,FI,1689988100
285,lebanon,36.2081,-86.2911,26.82,79,0,2.57,US,1689988100
286,channagiri,14.0333,75.9333,21.79,89,100,7.86,IN,1689988100
287,bahia de kino,28.8333,-111.9333,36.51,56,71,5.08,MX,1689988101
288,barra de santo antonio,-9.4047,-35.5072,23.6,75,0,4.73,BR,1689988101
289,benguela,-12.5763,13.4055,19.0,89,25,1.89,AO,1689988102
290,hammerfest,70.6634,23.6821,8.25,81,100,4.63,NO,1689988069
291,vadso,70.0744,29.7487,7.49,93,100,6.17,NO,1689988102
292,puttalam,8.0362,79.8283,26.64,84,94,9.88,LK,1689988103
293,bonthe,7.5264,-12.505,24.95,91,100,5.48,SL,1689988103
294,la ronge,55.1001,-105.2842,23.57,41,5,3.75,CA,1689988103
295,nogliki,51.8333,143.1667,21.92,79,100,4.58,RU,1689988104
296,pandan,14.0453,124.1694,28.38,83,52,3.66,PH,1689988104
297,strelka,58.0728,93.0344,18.0,85,100,1.34,RU,1689988105
298,badagara,11.6,75.5833,26.28,85,96,6.79,IN,1689988036
299,port alberni,49.2413,-124.8028,27.29,53,100,4.02,CA,1689988105
300,kirkwall,58.9848,-2.9587,9.03,93,8,2.57,GB,1689988106
301,ain sukhna,29.6002,32.3167,26.81,36,0,2.54,EG,1689988106
302,st. john's,47.5649,-52.7093,21.66,84,20,3.6,CA,1689987555
303,warrnambool,-38.3833,142.4833,11.67,80,100,5.98,AU,1689988083
304,colac,-38.3333,143.5833,8.98,72,97,2.92,AU,1689988107
305,sault ste. marie,46.5168,-84.3333,19.9,63,0,4.63,CA,1689987843
306,bestobe,52.4994,73.0975,17.77,67,1,6.59,KZ,1689988108
307,kavaratti,10.5669,72.642,28.05,82,87,9.43,IN,1689988108
308,howrah,22.5892,88.3103,28.0,94,75,3.09,IN,1689988108
309,lompoc,34.6391,-120.4579,31.68,76,0,3.09,US,1689988109
310,nema,57.5067,50.5011,13.51,97,100,1.96,RU,1689988109
311,prado,-17.3411,-39.2208,22.22,70,98,4.81,BR,1689988045
312,dudinka,69.4058,86.1778,21.46,62,60,5.46,RU,1689988110
313,peterhead,57.5058,-1.7981,12.22,81,95,1.36,GB,1689988110
314,cambria,35.5641,-121.0808,38.47,64,74,2.23,US,1689988111
315,weno,7.4515,151.8468,28.97,79,100,2.57,FM,1689988111
316,happy valley-goose bay,53.3168,-60.3315,20.2,55,87,1.05,CA,1689988111
317,rongelap,11.1635,166.8941,28.58,77,100,6.48,MH,1689988112
318,monett,36.929,-93.9277,23.9,75,40,1.54,US,1689988112
319,ujae,8.9322,165.7642,28.34,78,87,6.0,MH,1689988113
320,i-n-salah,27.1935,2.4607,36.11,10,0,8.15,DZ,1689988113
321,baie-comeau,49.2168,-68.1489,17.82,77,100,4.63,CA,1689988109
322,cacheu,12.2706,-16.1658,26.1,86,98,2.83,GW,1689988114
323,vila do maio,15.1333,-23.2167,26.44,82,14,6.51,CV,1689988114
324,tralee,52.2704,-9.7026,13.84,98,100,2.81,IE,1689988115
325,ranong,9.9658,98.6348,25.19,90,100,4.16,TH,1689988115
326,melfort,52.8667,-104.6177,23.26,56,19,2.97,CA,1689988115
327,labytnangi,66.6572,66.4183,18.53,88,100,1.98,RU,1689988116
328,del rio,29.3627,-100.8968,39.06,20,0,4.63,US,1689988116
329,kameyama,34.85,136.45,27.66,69,21,2.86,JP,1689988116
330,safonovo,55.15,33.2167,9.94,92,8,2.8,RU,1689988117
331,lensk,60.7253,114.9278,24.72,50,74,3.63,RU,1689988117
332,alofi,-19.0595,-169.9187,25.3,86,10,4.36,NU,1689988117
333,lodja,-3.4833,23.4333,23.4,55,2,1.09,CD,1689988118
334,queenstown,-31.8976,26.8753,11.67,66,100,8.37,ZA,1689988118
335,ocean city,39.2776,-74.5746,26.11,78,100,1.34,US,1689987951
336,ascension,30.2169,-90.9001,33.94,66,0,0.0,US,1689988119
337,san agustin de valle fertil,-30.6335,-67.4682,16.39,36,100,1.75,AR,1689988119
338,labrador city,52.9463,-66.9114,12.79,98,100,0.84,CA,1689988119
339,shenjiamen,29.9576,122.298,27.22,87,99,9.92,CN,1689988120
340,cinisi,38.1562,13.1073,35.56,12,0,7.2,IT,1689988120
341,cabanas,22.9758,-82.9219,28.25,75,68,1.57,CU,1689988120
342,sangkhla buri,15.1555,98.4536,23.17,100,100,0.2,TH,1689988121
343,ruidoso,33.3317,-105.673,29.08,21,0,4.12,US,1689988121
344,cascais,38.6979,-9.4215,19.96,81,29,6.71,PT,1689988121
345,durres,41.3231,19.4414,25.1,56,0,3.69,AL,1689987963
346,uttar char fasson,22.2332,90.7132,28.45,87,100,9.19,BD,1689988122
347,bridgewater,44.3835,-64.5155,21.73,100,97,2.24,CA,1689988122
348,monrovia,6.3005,-10.7969,24.98,85,99,5.54,LR,1689987830
349,maamba,-17.3667,27.15,14.75,73,3,0.22,ZM,1689988123
350,carnarvon,-24.8667,113.6333,15.74,32,0,10.79,AU,1689988123
351,isoka,-10.1606,32.6335,12.18,87,0,0.87,ZM,1689988124
352,linxia chengguanzhen,35.6003,103.2064,19.6,50,0,0.28,CN,1689988124
353,rancho cucamonga,34.1064,-117.5931,39.2,41,20,6.17,US,1689987947
354,rahuri,19.3833,74.65,22.95,92,100,4.81,IN,1689988125
355,bankura,23.25,87.0667,25.23,98,100,3.43,IN,1689988125
356,hasaki,35.7333,140.8333,29.05,73,51,4.29,JP,1689988125
357,taltal,-25.4,-70.4833,16.28,80,28,4.8,CL,1689987621
358,padang,-0.9492,100.3543,26.52,77,91,0.55,ID,1689988126
359,nikolayevsk-on-amure,53.1406,140.73,27.44,45,55,4.48,RU,1689988126
360,ribas do rio pardo,-20.4431,-53.7592,21.13,48,0,3.41,BR,1689988126
361,ciudad rio bravo,25.9833,-98.1,34.05,43,0,5.14,MX,1689988127
362,jiagedaqi,50.4167,124.1167,16.05,90,100,0.47,CN,1689988127
363,gwadar,25.1216,62.3254,27.68,85,97,2.96,PK,1689988127
364,walvis bay,-22.9575,14.5053,12.99,72,0,2.64,NA,1689988061
365,arno,60.1167,18.6333,11.25,89,10,4.59,SE,1689988128
366,shinkafi,13.0753,6.5105,25.75,72,100,2.87,NG,1689988128
367,tahe,52.3333,124.7333,23.16,40,100,0.66,CN,1689987922
368,vila velha,-20.3297,-40.2925,17.97,93,40,1.54,BR,1689988114
369,sogndal,61.2283,7.1003,12.21,93,75,0.0,NO,1689988129
370,conduaga,8.862,117.4893,26.75,88,100,4.54,PH,1689988130
371,ancud,-41.8697,-73.8203,8.77,87,100,5.09,CL,1689988130
372,vernon,50.2581,-119.2691,29.2,43,94,3.53,CA,1689988130
373,mejit,10.2753,170.8646,28.48,75,100,6.65,MH,1689988131
374,homer,59.6425,-151.5483,17.94,68,100,2.57,US,1689987923
375,zapolyarnyy,69.4154,30.8136,6.6,86,100,6.81,RU,1689988131
376,norilsk,69.3535,88.2027,21.35,58,57,3.0,RU,1689988132
377,caucete,-31.6518,-68.2811,18.99,18,33,1.02,AR,1689988132
378,aykhal,66.0,111.5,22.59,55,12,6.82,RU,1689988132
379,sechura,-5.5569,-80.8222,22.18,73,0,7.1,PE,1689988133
380,kuala tungkal,-0.8167,103.4667,26.27,84,16,3.56,ID,1689988133
381,dhidhdhoo,6.8833,73.1,28.09,78,80,7.77,MV,1689988134
382,orsa,54.5153,30.4053,13.32,74,96,2.6,BY,1689988134
383,shenandoah,30.4013,-91.0009,33.88,61,47,1.16,US,1689988134
384,hami,42.8,93.45,31.6,16,98,0.65,CN,1689988135
385,mount isa,-20.7333,139.5,16.87,39,0,6.69,AU,1689988135
386,praia da vitoria,38.7333,-27.0667,21.53,92,15,0.58,PT,1689988136
387,taoudenni,22.6783,-3.9836,36.37,10,44,2.61,ML,1689988136
388,ocean shores,46.9737,-124.1563,21.32,86,0,6.17,US,1689988136
389,dazhou,31.2159,107.5009,26.86,84,21,0.67,CN,1689988137
390,troitsk,54.0979,61.5773,15.47,74,100,2.97,RU,1689988137
391,malanje,-9.5402,16.341,19.17,47,27,2.18,AO,1689988137
392,fort mcmurray,56.7268,-111.381,27.73,44,0,0.0,CA,1689988138
393,qom,34.6401,50.8764,31.22,18,74,4.07,IR,1689988138
394,ma'rib,15.4591,45.3253,29.83,33,92,3.81,YE,1689988139
395,bodo,67.28,14.405,13.02,94,100,0.51,NO,1689988139
396,boguchany,58.3814,97.4531,22.87,46,99,2.21,RU,1689988139
397,susuman,62.7833,148.1667,24.97,42,73,3.53,RU,1689988140
398,lorengau,-2.0226,147.2712,29.69,69,13,3.46,PG,1689988140
399,portland,45.5234,-122.6762,32.75,39,20,4.12,US,1689987916
400,tidjikja,18.5564,-11.4271,32.06,38,73,7.44,MR,1689988141
401,labuan,5.2767,115.2417,27.0,75,100,2.15,MY,1689988141
402,deneysville,-26.8908,28.0971,5.7,91,15,3.06,ZA,1689988142
403,ngong,-1.3618,36.6566,13.85,80,27,1.53,KE,1689988143
404,maragogi,-9.0122,-35.2225,23.81,73,3,4.59,BR,1689988144
405,serenje,-13.2325,30.2352,12.0,87,0,3.43,ZM,1689988144
406,vorkuta,67.5,64.0,17.63,89,100,2.64,RU,1689988145
407,korla,41.7597,86.1469,30.76,21,83,5.6,CN,1689988146
408,cururupu,-1.8283,-44.8683,22.45,84,6,0.93,BR,1689988146
409,margate,51.3813,1.3862,14.27,83,100,1.79,GB,1689988146
410,polyarnyy,69.1989,33.4478,9.02,80,93,7.03,RU,1689988147
411,klaksvik,62.2266,-6.589,11.51,93,53,4.17,FO,1689988147
412,dwarka,22.2394,68.9678,27.86,88,100,6.5,IN,1689988148
413,kachug,53.9606,105.8817,21.96,41,70,1.05,RU,1689988148
414,banda,25.4833,80.3333,31.82,59,0,5.79,IN,1689988148
415,aswan,24.0934,32.907,32.43,20,70,4.56,EG,1689988149
416,jebrail,39.3992,47.0283,24.36,60,11,0.88,AZ,1689988149
417,victoria falls,-17.9235,25.843,14.3,76,0,3.02,ZW,1689988150
418,zhanaozen,43.3,52.8,28.37,24,2,3.65,KZ,1689988150
419,black point,-34.6187,137.8972,13.12,72,9,6.7,AU,1689988151
420,taro,-8.3862,115.28,21.17,83,100,2.25,ID,1689988151
421,bambamarca,-6.6833,-78.5333,11.33,96,64,2.1,PE,1689988152
422,port blair,11.6667,92.75,27.22,84,100,6.4,IN,1689988152
423,dryden,49.7833,-92.7503,18.62,61,93,2.45,CA,1689988153
424,madisonville,37.3281,-87.4989,23.92,72,100,0.45,US,1689988153
425,katsuura,35.1333,140.3,28.01,71,14,5.06,JP,1689988153
426,shkurinskaya,46.5858,39.3599,19.56,71,0,2.6,RU,1689988154
427,ust-nera,64.5667,143.2,14.48,95,100,3.14,RU,1689988154
428,motueka,-41.1333,173.0167,14.5,43,0,3.44,NZ,1689988154
429,morinville,53.8001,-113.652,27.69,52,4,2.3,CA,1689988156
430,kindu,-2.95,25.95,22.07,64,24,0.93,CD,1689988156
431,itamaraca,-7.7478,-34.8256,26.03,81,14,5.46,BR,1689988157
432,iola,37.9245,-95.4,26.03,57,0,3.09,US,1689988157
433,kiunga,-6.1219,141.2906,23.42,93,100,1.57,PG,1689988157
434,piranshahr,36.701,45.1413,21.06,47,0,1.91,IR,1689988158
435,mangai,-4.05,19.5333,23.78,46,22,0.83,CD,1689988158
436,calintaan,12.5667,120.9333,28.6,77,30,2.45,PH,1689988159
437,yuzawa,39.1667,140.5,27.67,68,6,0.38,JP,1689988159
438,oranjemund,-28.55,16.4333,11.68,54,100,1.01,NA,1689988160
439,chalisgaon,20.4667,75.0167,24.44,92,100,6.73,IN,1689988160
440,pamandzi,-12.7967,45.2794,23.88,88,0,1.54,YT,1689988160
441,tolanaro,-25.0319,46.9987,18.01,85,88,4.33,MG,1689988161
442,lillehammer,61.1146,10.4674,10.29,82,100,1.03,NO,1689988162
443,malax,62.9423,21.5731,13.82,95,0,0.51,FI,1689988162
444,mios,44.6049,-0.9333,15.21,94,0,2.06,FR,1689988162
445,levuka,50.1834,-105.4011,28.85,26,20,5.14,CA,1689988163
446,luanda,-8.8368,13.2343,20.0,94,20,2.06,AO,1689988164
447,parabel',58.6978,81.4825,19.23,83,100,2.39,RU,1689988164
448,hilo,19.7297,-155.09,33.49,67,40,4.63,US,1689987935
449,burnie,-41.0667,145.9167,8.58,84,100,0.67,AU,1689988054
450,uige,-7.6087,15.0613,17.12,85,92,1.09,AO,1689988166
451,remire-montjoly,4.9167,-52.2667,25.02,94,75,1.54,GF,1689988166
452,nicoya,10.1483,-85.452,26.91,84,95,0.48,CR,1689988024
453,kuta,-8.7233,115.1723,25.87,77,87,8.32,ID,1689988167
454,acarau,-2.8856,-40.12,25.67,77,6,7.05,BR,1689987987
455,pundong,-7.9522,110.3486,24.8,76,41,3.08,ID,1689988168
456,ingeniero jacobacci,-41.3427,-69.5448,4.33,67,2,11.47,AR,1689988168
457,tsarevo,42.1667,27.85,21.42,90,0,1.56,BG,1689988169
458,musoma,-1.5,33.8,19.59,55,5,4.3,TZ,1689988169
459,nova vicosa,-17.8919,-39.3719,22.54,69,100,5.32,BR,1689988170
460,middlesboro,36.6084,-83.7166,25.57,73,0,0.0,US,1689988170
461,muang phon-hong,18.4928,102.4172,26.7,89,75,0.69,LA,1689988170
462,mandalgovi,45.7625,106.2708,17.57,66,100,4.94,MN,1689988171
463,arendal,58.4615,8.7725,11.89,89,94,3.68,NO,1689987987
464,peace river,56.2501,-117.286,28.73,31,0,2.29,CA,1689988171
465,las heras,-46.5419,-68.9359,4.33,80,100,6.8,AR,1689988172
466,arica,-18.475,-70.3042,18.13,72,100,3.09,CL,1689987910
467,san julian,21.0167,-102.1667,23.44,41,75,3.37,MX,1689988172
468,forster,-32.1667,152.5167,16.27,58,17,5.79,AU,1689988173
469,helena valley west central,46.6629,-112.0604,35.49,20,0,5.14,US,1689988174
470,ivdel',60.6911,60.4206,14.62,83,16,2.94,RU,1689988174
471,obuase,6.206,-1.6619,21.3,99,63,1.63,GH,1689988174
472,beawar,26.1,74.3167,27.82,80,100,1.62,IN,1689988175
473,juneau,58.3019,-134.4197,19.0,89,100,3.09,US,1689988175
474,miguel ahumada,30.6167,-106.5167,37.95,12,4,7.44,MX,1689988175
475,robstown,27.7903,-97.6689,33.19,63,0,6.17,US,1689987894
476,upper dir,35.2058,71.8756,22.06,85,27,1.87,PK,1689988176
477,el abadia,36.2695,1.6861,30.15,32,99,0.89,DZ,1689988176
478,lichinga,-13.3128,35.2406,12.11,86,8,3.21,MZ,1689988177
479,wau,7.7029,27.9953,21.28,96,100,1.15,SS,1689988177
480,hakui,36.8833,136.7833,31.79,67,1,1.28,JP,1689988177
481,lihue,21.9789,-159.3672,30.77,69,75,7.2,US,1689988178
482,jiaxing,30.7522,120.75,28.06,85,100,3.82,CN,1689988178
483,charters towers,-20.1,146.2667,23.34,34,81,4.47,AU,1689988179
484,manokwari,-0.8667,134.0833,28.26,70,21,1.55,ID,1689988179
485,mumbwa,-14.9783,27.0619,16.03,61,3,3.77,ZM,1689988179
486,zeya,53.75,127.2667,23.89,43,100,1.41,RU,1689988180
487,la sarre,48.8002,-79.1996,14.15,58,0,3.12,CA,1689988180
488,ivins,37.1686,-113.6794,42.2,31,56,8.31,US,1689988180
489,batroun,34.2553,35.6581,27.7,89,0,2.67,LB,1689988181
490,axim,4.8699,-2.2405,24.19,89,97,4.38,GH,1689988181
491,kaa-khem,51.6833,94.7333,18.26,78,11,1.12,RU,1689988181
492,kokopo,-4.352,152.2633,28.22,74,96,5.04,PG,1689988182
493,sheridan,44.8333,-106.9173,31.12,28,0,2.57,US,1689988182
494,borodulikha,50.7184,80.9295,18.84,78,99,2.6,KZ,1689988183
495,merowe,18.4833,31.8167,34.13,13,100,3.04,SD,1689988183
496,mitsamiouli,-11.3847,43.2844,24.85,80,58,1.39,KM,1689988183
497,outokumpu,62.7269,29.0159,12.61,98,100,3.53,FI,1689988184
498,south hedland,-20.4089,118.5983,20.96,19,1,9.26,AU,1689988184
499,ripon,54.1352,-1.5212,13.93,91,100,2.06,GB,1689988185
500,puerto armuelles,8.2833,-82.8667,28.94,85,100,2.24,PA,1689988185
501,missoula,47.0166,-113.8009,32.22,19,7,3.02,US,1689988186
502,ajdabiya,30.7554,20.2263,29.38,33,0,3.6,LY,1689988186
503,maudaha,25.6833,80.1167,32.0,58,0,5.71,IN,1689988186
504,ostrov,57.3439,28.3537,9.85,95,0,2.69,RU,1689988187
505,watertown,42.3709,-71.1828,22.75,89,100,5.14,US,1689988137
506,hobyo,5.3505,48.5268,25.34,82,100,10.81,SO,1689988187
507,haradok,55.4624,29.9816,9.96,92,18,2.67,BY,1689988187
508,okny,47.5404,29.46,19.47,56,100,3.74,UA,1689988188
509,north bend,43.4065,-124.2243,26.25,88,100,5.66,US,1689988188
510,wuxue,29.8506,115.5525,25.12,99,100,2.3,CN,1689988189
511,ust'-ilimsk,58.0006,102.6619,24.74,42,0,1.48,RU,1689988189
512,manggar,-2.8833,108.2667,28.22,72,35,6.09,ID,1689988189
513,buenaventura,3.8801,-77.0312,25.81,94,100,1.07,CO,1689988190
514,santa ana,33.7456,-117.8678,37.45,56,20,3.09,US,1689988041
515,namtsy,62.7161,129.6658,20.22,40,0,5.3,RU,1689988190
516,les cayes,18.2,-73.75,27.41,86,56,3.55,HT,1689988190
517,tra mhor,52.1624,-7.1524,14.49,82,100,4.02,IE,1689988191
518,aksu,41.1231,80.2644,29.04,29,100,1.75,CN,1689988191
519,tangalle,6.024,80.7911,27.09,87,100,5.13,LK,1689988191
520,necochea,-38.5473,-58.7368,13.0,88,100,3.27,AR,1689987923
521,kingsland,30.8,-81.6898,32.74,69,14,1.98,US,1689988192
522,port saint john's,-31.6229,29.5448,13.98,72,64,2.22,ZA,1689988192
523,krasavino,60.9614,46.4814,10.86,99,38,2.37,RU,1689988193
524,igarka,67.4667,86.5833,19.35,66,100,5.5,RU,1689988194
525,vacaria,-28.5122,-50.9339,12.29,94,7,4.77,BR,1689988194
526,khanpur mahar,27.8436,69.4137,32.39,60,100,3.21,PK,1689988194
527,ryotsu-minato,38.0833,138.4333,25.84,78,6,1.28,JP,1689988195
528,mahina,-17.5065,-149.489,26.87,50,40,2.57,PF,1689988195
529,raver,21.25,76.0333,25.43,90,100,4.0,IN,1689988195
530,kitee,62.1,30.15,13.1,96,100,5.03,FI,1689988196
531,okha,53.5739,142.9478,18.77,88,100,4.5,RU,1689988196
532,amga,60.8953,131.9608,20.23,43,15,5.01,RU,1689988197
533,bac kan,22.1333,105.8333,28.36,83,99,0.93,VN,1689988197
534,international falls,48.6011,-93.411,23.41,68,0,1.34,US,1689988197
535,barcelos,41.5388,-8.6151,18.29,92,8,1.35,PT,1689987914
536,nago,26.5881,127.9761,30.81,74,99,3.36,JP,1689988198
537,lae,-6.7221,146.9847,28.83,68,16,2.27,PG,1689988198
538,tabas,33.5959,56.9244,29.05,17,0,0.72,IR,1689988198
539,buka,40.8108,69.1986,23.19,30,0,2.59,UZ,1689988199
540,mata-utu,-13.2816,-176.1745,28.04,79,21,4.1,WF,1689988199
541,namibe,-15.1961,12.1522,17.47,87,0,1.26,AO,1689988199
542,san andres,12.5847,-81.7006,29.01,84,20,5.14,CO,1689988015
543,bedele,8.456,36.353,12.03,95,100,0.1,ET,1689988200
544,sablayan,12.8346,120.769,28.28,74,23,1.83,PH,1689988203
545,shimoda,34.6667,138.95,28.39,72,14,4.53,JP,1689988203
546,ardestan,33.3761,52.3694,29.12,18,65,0.95,IR,1689988204
547,gaigeturi,33.4644,126.3183,24.49,87,100,8.38,KR,1689988205
548,tuzha,57.6062,47.936,11.41,95,15,2.66,RU,1689988205
549,illizi,26.4833,8.4667,31.18,14,0,4.22,DZ,1689988206
550,araxa,-19.5933,-46.9406,14.11,83,0,2.16,BR,1689988207
551,nakamura,32.9833,132.9333,28.55,71,61,2.45,JP,1689988207
552,kargasok,59.0556,80.8572,19.15,82,100,2.12,RU,1689988208
553,tobelo,1.7284,128.0095,28.79,67,7,2.9,ID,1689988209
554,urengoy,65.9667,78.3667,19.88,78,95,3.06,RU,1689988209
555,codrington,-38.2667,141.9667,12.59,76,80,6.28,AU,1689988210
556,leh,34.1667,77.5833,15.89,68,92,2.08,IN,1689988210
557,fisterra,42.9049,-9.2629,18.19,84,67,6.45,ES,1689988211
558,ayorou,14.7308,0.9174,32.21,43,94,3.17,NE,1689988096
559,anqing,30.5092,117.0506,27.36,89,100,4.67,CN,1689988211
560,gamay,12.3854,125.2979,28.45,79,100,3.49,PH,1689988212
561,pacasmayo,-7.4006,-79.5714,20.73,84,0,4.77,PE,1689988212
562,asasa,7.1,39.2,11.88,94,100,1.85,ET,1689988213
563,tome acu,-2.4189,-48.1522,22.85,62,5,1.49,BR,1689988213
564,harar,9.3094,42.1258,15.42,85,98,4.6,ET,1689988213
565,jinotega,13.0917,-86.0018,20.16,94,21,2.24,NI,1689988214
566,lloydminster,53.2835,-110.0016,24.7,51,0,2.81,CA,1689988214
567,geraldton,-28.7667,114.6,12.23,87,0,3.6,AU,1689988215
568,vilyuysk,63.7553,121.6247,21.73,51,28,0.72,RU,1689988215
569,ilabaya,-17.4208,-70.5133,19.43,45,0,0.7,PE,1689988216
570,imbituba,-28.24,-48.6703,19.92,92,9,6.3,BR,1689988216
571,shingu,33.7333,135.9833,27.88,71,15,3.9,JP,1689988217
572,ormara,25.2088,64.6357,27.94,88,95,5.49,PK,1689987994
573,la'ie,21.6477,-157.9253,30.98,67,14,3.13,US,1689988217
574,kidal,18.4411,1.4078,32.49,37,93,4.94,ML,1689988218
575,greymouth,-42.4667,171.2,9.28,57,0,3.96,NZ,1689988218
576,edeia,-17.3383,-49.9314,21.36,53,0,4.41,BR,1689988219
577,bouafle,6.9904,-5.7442,24.98,96,100,2.3,CI,1689988220
578,ulety,51.3572,112.4849,20.88,40,20,1.88,RU,1689988220
579,revda,56.801,59.9303,13.08,86,95,2.57,RU,1689988221
580,tchintabaraden,15.8969,5.7985,29.16,51,5,3.43,NE,1689988222
581,kampene,-3.6,26.6667,20.91,63,9,1.1,CD,1689988223
582,curillo,1.0333,-75.9191,21.34,94,100,0.32,CO,1689988223
583,saudarkrokur,65.7461,-19.6394,9.07,85,100,0.99,IS,1689988224
584,pokhara,28.2333,83.9833,23.94,85,92,0.64,NP,1689988179
585,novodvinsk,64.4165,40.8122,13.77,99,96,1.54,RU,1689988224
